City_ID,City,Lat,Lng,Max Temp,Humidity,Cloudiness,Wind Speed,Country,Date
0,dikson,73.5069,80.5464,-5.69,97,100,2.86,RU,1675607560
1,thompson,55.7435,-97.8558,-9.24,84,100,2.3,CA,1675607560
2,vaini,-21.2,-175.2,79.74,78,51,10.11,TO,1675607372
3,krasnovishersk,60.4078,57.082,4.71,99,97,3.29,RU,1675607561
4,atikokan,48.7555,-91.6216,3.49,93,99,4.25,CA,1675607561
5,turukhansk,65.8167,87.9833,5.09,98,98,3.78,RU,1675607561
6,bambous virieux,-20.3428,57.7575,82.65,78,40,6.91,MU,1675607562
7,college,64.8569,-147.8028,-14.85,76,40,0.0,US,1675607562
8,mount isa,-20.7333,139.5,76.77,100,75,4.61,AU,1675607563
9,vila velha,-20.3297,-40.2925,93.15,65,0,14.97,BR,1675607563
10,ushuaia,-54.8,-68.3,44.22,81,100,32.21,AR,1675607563
11,bredasdorp,-34.5322,20.0403,76.95,63,94,15.55,ZA,1675607361
12,nemuro,43.3236,145.575,22.93,77,22,9.62,JP,1675607564
13,chuy,-33.6971,-53.4616,77.02,56,15,11.72,UY,1675607565
14,marsh harbour,26.5412,-77.0636,74.46,75,84,24.02,BS,1675607565
15,tilichiki,60.4667,166.1,-21.8,94,9,8.57,RU,1675607566
16,constitucion,-35.3333,-72.4167,69.4,70,49,6.85,CL,1675607566
17,pacific grove,36.6177,-121.9166,52.52,93,75,6.91,US,1675607566
18,tuktoyaktuk,69.4541,-133.0374,-47.2,66,0,3.44,CA,1675607567
19,yerbogachen,61.2767,108.0108,-16.11,100,99,1.97,RU,1675607567
20,cape town,-33.9258,18.4232,79.12,69,40,23.02,ZA,1675607540
21,luderitz,-26.6481,15.1594,72.09,65,3,30.24,NA,1675607568
22,santa fe do sul,-20.2111,-50.9258,81.05,70,99,6.4,BR,1675607569
23,qaanaaq,77.484,-69.3632,-3.48,67,0,8.7,GL,1675607569
24,ornskoldsvik,63.2909,18.7153,29.35,86,69,14.97,SE,1675607570
25,victoria,22.2855,114.1577,66.94,89,75,1.99,HK,1675607493
26,punta arenas,-53.15,-70.9167,50.11,53,0,39.12,CL,1675607570
27,camacha,33.0833,-16.3333,60.22,63,40,11.5,PT,1675607564
28,viedma,-40.8135,-62.9967,95.16,17,72,19.37,AR,1675607571
29,vanimo,-2.6741,141.3028,78.55,86,100,3.56,PG,1675607572
30,port alfred,-33.5906,26.891,79.18,79,6,5.01,ZA,1675607572
31,talnakh,69.4865,88.3972,7.21,96,100,4.34,RU,1675607572
32,groton,41.3501,-72.0784,42.69,59,0,13.8,US,1675607573
33,nara,34.6851,135.8049,40.5,53,11,2.21,JP,1675607573
34,husavik,66.0449,-17.3389,44.28,81,100,28.16,IS,1675607574
35,klaksvik,62.2266,-6.589,45.52,88,100,34.74,FO,1675607574
36,port elizabeth,-33.918,25.5701,87.1,84,40,23.02,ZA,1675607575
37,paragominas,-2.9667,-47.4833,86.52,60,100,4.0,BR,1675607575
38,nikolskoye,59.7035,30.7861,21.09,86,100,6.96,RU,1675607576
39,kapaa,22.0752,-159.319,72.1,91,100,14.97,US,1675607576
40,biak,-0.9131,122.8766,76.39,81,79,5.79,ID,1675607577
41,lamu,-2.2717,40.902,82.62,76,87,16.08,KE,1675607577
42,caravelas,-17.7125,-39.2481,88.65,55,1,12.8,BR,1675607578
43,busselton,-33.65,115.3333,65.73,88,3,16.55,AU,1675607579
44,fortuna,40.5982,-124.1573,47.35,96,100,1.01,US,1675607579
45,airai,-8.9266,125.4092,60.8,93,100,1.74,TL,1675607580
46,bluff,-46.6,168.3333,60.94,70,99,19.13,NZ,1675607580
47,faanui,-16.4833,-151.75,81.19,74,38,15.9,PF,1675607581
48,jamestown,42.097,-79.2353,42.39,42,0,14.97,US,1675607582
49,broken hill,-31.95,141.4333,71.85,31,0,8.01,AU,1675607582
50,barrow,71.2906,-156.7887,-18.38,76,100,5.75,US,1675607583
51,yellowknife,62.456,-114.3525,-21.44,76,75,6.91,CA,1675607583
52,deming,32.2687,-107.7586,28.29,59,0,5.75,US,1675607480
53,lasa,46.6166,10.7002,42.69,80,12,5.95,IT,1675607585
54,turayf,31.6725,38.6637,53.85,37,0,20.71,SA,1675607586
55,champerico,14.3,-91.9167,75.74,64,0,5.66,GT,1675607587
56,corozal,9.3151,-75.2928,84.2,52,64,7.05,CO,1675607588
57,kavieng,-2.5744,150.7967,81.88,73,100,2.48,PG,1675607588
58,brae,60.3964,-1.353,45.1,80,100,19.3,GB,1675607589
59,calgary,51.0501,-114.0853,37.35,69,75,6.91,CA,1675607491
60,rikitea,-23.1203,-134.9692,78.42,76,4,15.66,PF,1675607591
61,jiquilisco,13.3167,-88.5833,81.43,45,6,5.79,SV,1675607594
62,salym,60.0625,71.4789,-2.92,100,99,2.75,RU,1675607548
63,longyearbyen,78.2186,15.6401,21.04,73,100,40.29,SJ,1675607600
64,vardo,70.3705,31.1107,21.18,93,100,10.36,NO,1675607601
65,puerto ayora,-0.7393,-90.3518,82.36,92,64,8.01,EC,1675607602
66,tazovskiy,67.4667,78.7,-8.25,100,52,8.41,RU,1675607602
67,cayenne,4.9333,-52.3333,73.44,100,75,2.3,GF,1675607412
68,saint george,37.1041,-113.5841,34.39,75,0,0.0,US,1675607603
69,ribeira grande,38.5167,-28.7,63.0,82,40,15.01,PT,1675607604
70,teknaf,20.8624,92.3058,66.47,58,17,9.98,BD,1675607605
71,albany,42.6001,-73.9662,29.8,60,100,1.99,US,1675607606
72,mishkino,55.3389,63.9175,1.8,100,99,5.08,RU,1675607606
73,norman wells,65.282,-126.8329,-21.96,83,40,2.3,CA,1675607607
74,hermanus,-34.4187,19.2345,69.46,81,100,8.3,ZA,1675607608
75,krasnokamensk,50.0979,118.0369,-18.45,100,60,3.51,RU,1675607609
76,hilo,19.7297,-155.09,72.63,88,75,6.91,US,1675607479
77,yulara,-25.2406,130.9889,73.26,21,0,9.84,AU,1675607609
78,hofn,64.2539,-15.2082,44.62,93,100,25.32,IS,1675607610
79,vestmanna,62.1564,-7.1664,43.72,87,100,13.8,FO,1675607610
80,lata,40.1629,-8.3327,65.48,39,0,8.19,PT,1675607610
81,tarauaca,-8.1614,-70.7656,72.01,99,100,1.54,BR,1675607611
82,sydney,-33.8679,151.2073,72.63,74,75,11.5,AU,1675607503
83,gazanjyk,39.2446,55.5154,49.6,56,100,9.28,TM,1675607612
84,mataura,-46.1927,168.8643,58.24,78,100,5.61,NZ,1675607612
85,tual,-5.6667,132.75,80.94,80,100,14.14,ID,1675607356
86,sabang,5.8933,95.3214,81.64,70,95,5.55,ID,1675607613
87,avarua,-21.2078,-159.775,80.65,83,75,13.8,CK,1675607613
88,sena madureira,-9.0656,-68.6569,84.36,58,100,2.15,BR,1675607613
89,samarai,-10.6167,150.6667,79.39,86,100,12.68,PG,1675607614
90,celestun,20.8667,-90.4,72.82,81,86,10.16,MX,1675607614
91,tautira,-17.7333,-149.15,81.41,74,92,14.12,PF,1675607615
92,leningradskiy,69.3833,178.4167,-27.33,99,100,4.41,RU,1675607615
93,kayerkan,69.3497,87.7602,6.53,84,100,3.38,RU,1675607616
94,lorengau,-2.0226,147.2712,80.49,81,100,3.98,PG,1675607617
95,huarmey,-10.0681,-78.1522,73.89,77,83,5.35,PE,1675607617
96,torbay,47.6666,-52.7314,22.39,74,40,29.93,CA,1675607441
97,shingu,33.7333,135.9833,40.15,69,32,6.11,JP,1675607618
98,davila,18.4726,120.5763,76.5,77,65,6.76,PH,1675607618
99,butaritari,3.0707,172.7902,80.4,82,77,18.23,KI,1675607619
100,severo-kurilsk,50.6789,156.125,24.93,78,96,7.9,RU,1675607549
101,dalby,-27.1833,151.2667,71.98,68,83,3.0,AU,1675607619
102,juneau,58.3019,-134.4197,34.21,94,100,9.22,US,1675607469
103,kieta,-6.2167,155.6333,77.16,88,100,2.86,PG,1675607620
104,deder,9.3167,41.45,65.73,35,68,10.47,ET,1675607620
105,tynda,55.1667,124.7167,-14.57,99,99,1.95,RU,1675607621
106,velsk,61.0701,42.0983,3.92,100,83,0.85,RU,1675607621
107,khuzhir,53.1939,107.3397,4.95,86,53,4.23,RU,1675607622
108,morondava,-20.2833,44.2833,82.49,75,1,9.19,MG,1675607622
109,poltsamaa,58.6525,25.9706,26.83,78,100,10.18,EE,1675607623
110,rojhan,28.6868,69.9534,72.99,22,0,5.35,PK,1675607623
111,dongsheng,39.8161,109.9776,25.36,36,100,7.92,CN,1675607623
112,acapulco,16.8634,-99.8901,73.22,73,0,3.44,MX,1675607624
113,arraial do cabo,-22.9661,-42.0278,89.56,58,0,8.05,BR,1675607624
114,sioux lookout,50.1001,-91.917,5.07,85,100,3.44,CA,1675607625
115,geraldton,-28.7667,114.6,73.81,73,100,11.5,AU,1675607364
116,iqaluit,63.7506,-68.5145,-31.27,73,75,3.44,CA,1675607625
117,paracuru,-3.41,-39.0306,83.1,63,88,12.03,BR,1675607626
118,abu dhabi,24.4667,54.3667,71.71,72,0,6.91,AE,1675606939
119,hobyo,5.3505,48.5268,77.38,75,93,19.01,SO,1675607626
120,new norfolk,-42.7826,147.0587,58.5,62,92,3.0,AU,1675607627
121,hithadhoo,-0.6,73.0833,81.0,71,27,12.19,MV,1675607344
122,esfarayen,37.0765,57.5101,40.66,40,63,2.15,IR,1675607627
123,gorontalo,0.5412,123.0595,74.82,86,100,3.67,ID,1675607360
124,chokurdakh,70.6333,147.9167,-36.27,100,97,4.14,RU,1675607628
125,saskylakh,71.9167,114.0833,-38.38,100,100,4.09,RU,1675607565
126,mayo,38.8876,-76.5119,40.33,48,0,11.5,US,1675607629
127,iralaya,15.0,-83.2333,79.99,66,1,11.05,HN,1675607629
128,korla,41.7597,86.1469,30.18,68,100,2.26,CN,1675607630
129,padang,-0.9492,100.3543,71.65,83,100,4.14,ID,1675607630
130,kodiak,57.79,-152.4072,35.11,93,100,26.46,US,1675607630
131,georgetown,5.4112,100.3354,75.15,94,40,4.61,MY,1675607351
132,kaitangata,-46.2817,169.8464,57.2,96,100,5.03,NZ,1675607576
133,leshukonskoye,64.8989,45.7622,-1.3,99,96,4.32,RU,1675607631
134,lukavac,44.5334,18.527,30.78,51,75,6.91,BA,1675607632
135,christchurch,-43.5333,172.6333,70.0,52,0,3.44,NZ,1675607632
136,atuona,-9.8,-139.0333,78.33,75,5,18.03,PF,1675607403
137,ulaangom,49.9811,92.0667,-8.64,92,100,1.83,MN,1675607633
138,ploemeur,47.7333,-3.4333,54.86,72,75,12.66,FR,1675607633
139,batemans bay,-35.7167,150.1833,68.09,78,93,2.08,AU,1675607633
140,saint-andre-les-vergers,48.2853,4.0521,46.44,66,75,18.41,FR,1675607634
141,lagoa,39.05,-27.9833,59.38,83,69,21.36,PT,1675607634
142,lebu,-37.6167,-73.65,66.07,75,33,14.61,CL,1675607628
143,yar-sale,66.8333,70.8333,-5.78,100,99,7.16,RU,1675607635
144,bilasipara,26.232,90.2347,66.74,47,0,5.03,IN,1675607636
145,mushie,-3.0167,16.9,89.29,50,98,0.58,CD,1675607636
146,linguere,15.3953,-15.1193,90.5,8,6,7.92,SN,1675607637
147,dryden,49.7833,-92.7503,5.29,78,75,4.61,CA,1675607637
148,esperance,-33.8667,121.9,69.35,64,44,20.49,AU,1675607637
149,saravena,6.9538,-71.8752,78.44,71,73,3.18,CO,1675607638
150,north myrtle beach,33.816,-78.68,49.1,79,100,6.91,US,1675607638
151,sao joao da ponte,-15.9292,-44.0078,84.96,53,1,3.11,BR,1675607639
152,mahebourg,-20.4081,57.7,82.69,78,40,6.91,MU,1675607567
153,hobart,-42.8794,147.3294,58.86,75,96,13.8,AU,1675607371
154,kimberley,-28.7323,24.7623,76.69,44,40,18.41,ZA,1675607639
155,riyadh,24.6877,46.7219,75.34,29,2,5.79,SA,1675607583
156,yeniseysk,58.4497,92.1703,-3.84,100,100,1.77,RU,1675607640
157,comodoro rivadavia,-45.8667,-67.5,82.26,26,0,26.46,AR,1675607640
158,san patricio,28.017,-97.5169,55.85,86,0,1.7,US,1675607641
159,yining,29.0361,114.5636,46.65,97,97,0.96,CN,1675607642
160,vila,42.0304,-8.1588,54.7,35,0,4.05,PT,1675607515
161,half moon bay,37.4636,-122.4286,52.79,88,100,1.99,US,1675607643
162,carnarvon,-24.8667,113.6333,77.72,76,3,18.16,AU,1675607645
163,santa marta,11.2408,-74.199,84.88,60,95,11.01,CO,1675607646
164,northam,51.0333,-4.2167,50.25,74,100,6.13,GB,1675607647
165,lexington,37.9887,-84.4777,46.24,54,0,16.11,US,1675607594
166,bengkulu,-3.8004,102.2655,76.14,88,100,7.25,ID,1675607649
167,mar del plata,-38.0023,-57.5575,78.94,55,0,15.99,AR,1675607482
168,ilulissat,69.2167,-51.1,3.22,72,100,12.66,GL,1675607650
169,weligama,5.9667,80.4167,76.42,89,100,1.01,LK,1675607651
170,saint-philippe,-21.3585,55.7679,83.79,85,80,10.49,RE,1675607651
171,provideniya,64.3833,-173.3,0.93,96,100,9.28,RU,1675607652
172,tessalit,20.1986,1.0114,83.46,8,47,6.26,ML,1675607653
173,bodden town,19.2833,-81.25,81.99,71,20,5.75,KY,1675607654
174,ponta do sol,32.6667,-17.1,63.23,64,26,2.89,PT,1675607655
175,lima,-12.0432,-77.0282,75.45,69,19,11.5,PE,1675607473
176,kahului,20.8947,-156.47,73.85,86,20,10.0,US,1675607656
177,dunedin,-45.8742,170.5036,63.81,70,85,5.99,NZ,1675607436
178,sola,-13.8833,167.55,82.94,75,100,24.81,VU,1675607658
179,kutum,14.2,24.6667,85.51,6,66,3.18,SD,1675607659
180,clyde river,70.4692,-68.5914,-14.57,64,100,12.66,CA,1675607660
181,poum,-20.2333,164.0167,83.07,83,20,20.27,NC,1675607661
182,santa fe,-31.6333,-60.7,89.02,35,0,5.99,AR,1675607399
183,tasiilaq,65.6145,-37.6368,28.56,81,100,22.17,GL,1675607662
184,pevek,69.7008,170.3133,-37.8,100,82,2.73,RU,1675607663
185,hounde,11.5,-3.5167,98.33,8,10,5.73,BF,1675607664
186,nouadhibou,20.931,-17.0347,73.38,25,100,18.41,MR,1675607665
187,mabai,23.0128,104.4508,56.01,93,69,4.81,CN,1675607665
188,hervey bay,-25.2986,152.8535,78.12,89,100,11.18,AU,1675607666
189,nachalovo,46.338,48.2013,28.33,79,75,8.95,RU,1675607667
190,port macquarie,-31.4333,152.9167,69.89,80,26,1.88,AU,1675607668
191,dwarka,22.2394,68.9678,71.17,75,0,10.4,IN,1675607668
192,tiksi,71.6872,128.8694,-29.29,100,100,3.33,RU,1675607669
193,tete,-16.1564,33.5867,95.09,46,40,5.75,MZ,1675607670
194,jieshi,22.8134,115.8257,63.05,89,100,14.61,CN,1675607670
195,mount pleasant,32.7941,-79.8626,48.02,98,100,9.22,US,1675607435
196,saldanha,-33.0117,17.9442,78.85,79,45,19.86,ZA,1675607671
197,ponta delgada,37.7333,-25.6667,63.32,77,20,10.36,PT,1675607671
198,keetmanshoop,-26.5833,18.1333,89.06,36,80,16.82,NA,1675607672
199,shizunai,42.3339,142.3669,33.4,76,99,18.7,JP,1675607672
200,adrar,20.5022,-10.0711,72.48,17,48,12.33,MR,1675607672
201,narok,-1.0783,35.8601,81.0,17,100,9.4,KE,1675607673
202,alofi,-19.0595,-169.9187,76.89,94,100,2.3,NU,1675607673
203,port lincoln,-34.7333,135.8667,62.04,83,0,10.67,AU,1675607674
204,bay roberts,47.5999,-53.2648,23.14,75,6,8.99,CA,1675607674
205,cockburn town,21.4612,-71.1419,76.42,78,8,20.56,TC,1675607675
206,tarko-sale,64.9225,77.785,-6.65,100,94,5.73,RU,1675607675
207,kaka,37.3482,59.6143,48.72,65,1,11.41,TM,1675607675
208,namibe,-15.1961,12.1522,75.9,68,61,11.16,AO,1675607676
209,nouakchott,18.0858,-15.9785,78.73,25,33,11.61,MR,1675607676
210,kulhudhuffushi,6.6221,73.07,81.41,71,64,1.45,MV,1675607378
211,uvalde,29.3669,-99.767,47.12,100,0,4.61,US,1675607677
212,kidal,18.4411,1.4078,88.86,7,6,1.16,ML,1675607677
213,lompoc,34.6391,-120.4579,52.79,87,100,20.0,US,1675607677
214,kovernino,57.1253,43.8142,16.32,96,96,4.29,RU,1675607678
215,hambantota,6.1241,81.1185,80.94,89,40,5.75,LK,1675607678
216,assiniboia,49.6334,-105.9845,17.42,79,5,4.61,CA,1675607679
217,bowen,-20.0167,148.2333,81.57,84,23,13.78,AU,1675607679
218,san cristobal,7.7669,-72.225,71.78,58,52,8.05,VE,1675607680
219,pagudpud,18.5616,120.7868,74.14,83,53,6.11,PH,1675607680
220,komatsu,36.4026,136.4509,34.83,86,20,6.91,JP,1675607681
221,emirdag,39.0197,31.15,33.96,71,100,13.53,TR,1675607681
222,aksarka,66.5606,67.7975,-7.22,99,58,6.38,RU,1675607614
223,waingapu,-9.6567,120.2641,77.16,91,100,7.2,ID,1675607682
224,mastic beach,40.7668,-72.8521,41.14,63,0,13.8,US,1675607682
225,kiunga,-6.1219,141.2906,73.2,99,100,2.24,PG,1675607683
226,punta alta,-38.8759,-62.0736,92.53,32,49,14.79,AR,1675607683
227,antigonish,45.6169,-61.9986,16.14,77,97,3.0,CA,1675607434
228,arlit,18.7369,7.3853,91.78,7,15,8.61,NE,1675607684
229,chesma,53.8111,60.6533,-0.47,100,94,6.76,RU,1675607684
230,januaria,-15.4833,-44.3667,88.66,49,0,3.47,BR,1675607685
231,carson city,39.1638,-119.7674,34.21,89,100,8.01,US,1675607685
232,faya,18.3851,42.4509,68.11,51,98,7.25,SA,1675607685
233,bridgetown,13.1,-59.6167,82.89,65,75,23.02,BB,1675607538
234,narsaq,60.9167,-46.05,19.62,82,99,4.32,GL,1675607686
235,najran,17.4924,44.1277,79.45,24,100,12.12,SA,1675607686
236,novelda,38.3848,-0.7677,61.65,70,1,7.18,ES,1675607687
237,plouzane,48.3833,-4.6167,52.12,79,100,8.05,FR,1675607688
238,senador jose porfirio,-2.5908,-51.9542,83.44,68,75,3.62,BR,1675607689
239,marsa matruh,31.3525,27.2453,66.4,34,40,26.46,EG,1675607689
240,minot,48.2325,-101.2963,21.42,86,0,9.22,US,1675607640
241,bilibino,68.0546,166.4372,-24.93,99,100,2.08,RU,1675607553
242,grand gaube,-20.0064,57.6608,82.8,76,59,5.01,MU,1675607690
243,cabo san lucas,22.8909,-109.9124,65.52,59,1,3.06,MX,1675607691
244,honningsvag,70.9821,25.9704,26.35,93,100,27.63,NO,1675607691
245,olkhovka,53.2115,60.6069,0.68,99,94,7.94,RU,1675607692
246,phangnga,8.4509,98.5298,80.64,85,8,4.18,TH,1675607692
247,krivosheino,57.3431,83.9261,-1.73,100,88,2.71,RU,1675607692
248,palana,59.1167,159.9667,-13.05,99,42,5.01,RU,1675607693
249,hamilton,39.1834,-84.5333,45.23,59,0,14.97,US,1675607694
250,doka,13.5167,35.7667,93.67,15,98,11.14,SD,1675607694
251,te anau,-45.4167,167.7167,56.26,92,100,10.54,NZ,1675607556
252,prince rupert,54.3161,-130.3201,42.49,75,20,24.16,CA,1675607695
253,lumeje,-11.55,20.7833,71.46,76,99,11.92,AO,1675607695
254,ouadda,8.0777,22.4007,99.07,8,19,5.57,CF,1675607695
255,bethel,41.3712,-73.414,36.54,57,0,10.36,US,1675607559
256,diffa,13.3154,12.6113,92.73,10,99,12.55,NE,1675607696
257,upernavik,72.7868,-56.1549,-16.44,98,98,5.17,GL,1675607410
258,namatanai,-3.6667,152.4333,78.06,81,99,3.06,PG,1675607697
259,castro,-24.7911,-50.0119,75.83,59,72,8.68,BR,1675607697
260,shelburne,44.0787,-80.2041,32.45,82,100,15.39,CA,1675607587
261,nanortalik,60.1432,-45.2371,24.12,52,99,12.91,GL,1675607698
262,roald,62.5833,6.1333,44.76,93,75,10.36,NO,1675607698
263,teya,60.3778,92.6267,5.74,98,100,4.03,RU,1675607699
264,manadhoo,5.7667,73.3833,81.12,74,100,5.55,MV,1675607699
265,isangel,-19.55,169.2667,80.31,85,100,5.88,VU,1675607699
266,kommunar,59.6206,30.39,20.73,87,100,7.99,RU,1675607563
267,hue,16.4667,107.6,75.31,88,40,2.3,VN,1675607700
268,tura,25.5198,90.2201,60.66,44,0,2.42,IN,1675607701
269,yantal,56.8471,105.2542,7.21,98,100,3.49,RU,1675607701
270,manta,-0.95,-80.7333,80.38,74,40,2.3,EC,1675607701
271,praia,14.9215,-23.5087,77.54,47,20,20.71,CV,1675607703
272,topolovatu mare,45.7739,21.6189,32.83,62,19,16.78,RO,1675607704
273,saravan,39.7196,45.6483,24.84,95,100,2.24,AM,1675607705
274,jacqueville,5.2052,-4.4146,81.12,73,68,11.27,CI,1675607705
275,muros,42.7762,-9.0603,63.68,45,0,4.79,ES,1675607706
276,rehnan,32.6846,51.6013,44.11,40,0,4.65,IR,1675607707
277,ngunguru,-35.6167,174.5,65.1,94,100,8.21,NZ,1675607708
278,auki,-8.7676,160.7034,76.46,97,100,14.32,SB,1675607708
279,port hardy,50.6996,-127.4199,42.98,100,75,2.3,CA,1675607709
280,terrace,54.5163,-128.6035,39.11,93,75,12.66,CA,1675607710
281,vao,-22.6667,167.4833,78.8,87,47,19.08,NC,1675607710
282,kruisfontein,-34.0033,24.7314,84.88,66,4,22.24,ZA,1675607711
283,gizo,-8.103,156.8419,79.41,89,100,16.4,SB,1675607712
284,la tuque,47.4334,-72.7824,1.65,78,100,5.75,CA,1675607420
285,labuhan,-6.8844,112.2051,78.71,85,100,7.76,ID,1675607714
286,olafsvik,64.8945,-23.7142,42.12,90,88,22.82,IS,1675607715
287,thunder bay,48.4001,-89.3168,10.38,67,100,3.44,CA,1675607640
288,dauphin,51.1494,-100.0502,8.74,92,100,4.61,CA,1675607716
289,shakiso,5.75,38.9167,78.78,17,7,10.07,ET,1675607716
290,cherskiy,68.75,161.3,-41.76,100,100,4.72,RU,1675607717
291,la huerta,19.4667,-104.65,63.09,41,0,1.7,MX,1675607718
292,caraballeda,10.6112,-66.8522,85.86,68,20,4.61,VE,1675607718
293,verkhnyaya khava,51.8404,39.9413,28.47,97,82,5.91,RU,1675607719
294,vieste,41.8825,16.175,42.66,53,54,31.68,IT,1675607720
295,benito juarez,19.385,-99.165,55.99,52,0,0.0,MX,1675607703
296,port-gentil,-0.7193,8.7815,84.16,74,40,12.66,GA,1675607722
297,boca do acre,-8.7522,-67.3978,73.96,91,100,1.1,BR,1675607723
298,penzance,50.1186,-5.5371,48.88,69,56,14.29,GB,1675607724
299,east london,-33.0153,27.9116,85.14,70,0,14.97,ZA,1675607725
300,hualmay,-11.0964,-77.6139,76.39,70,50,6.26,PE,1675607726
301,kupang,-10.1667,123.5833,76.86,86,96,6.76,ID,1675607727
302,magistralnyy,56.1725,107.4458,7.52,97,100,3.33,RU,1675607727
303,sur,22.5667,59.5289,72.37,73,31,8.46,OM,1675607728
304,langxiang,46.95,128.8833,-3.68,100,93,2.57,CN,1675607728
305,paita,-5.0892,-81.1144,78.66,65,97,5.75,PE,1675607729
306,katsuura,35.1333,140.3,48.9,79,30,3.29,JP,1675607729
307,kijang,35.2442,129.2139,29.93,35,0,4.97,KR,1675607730
308,tiassale,5.8983,-4.8283,98.82,30,100,4.56,CI,1675607730
309,bassano,50.7834,-112.4685,28.89,92,65,3.98,CA,1675607731
310,qaqortoq,60.7167,-46.0333,20.44,78,100,7.27,GL,1675607731
311,mayor pablo lagerenza,-19.9309,-60.7718,95.74,27,50,1.45,PY,1675607731
312,villa maria,-32.4075,-63.2402,82.81,48,0,12.19,AR,1675607732
313,sikonge,-5.6333,32.7667,73.22,70,100,2.93,TZ,1675607732
314,kampene,-3.6,26.6667,79.18,70,86,0.47,CD,1675607733
315,las palmas,28.4204,-14.0131,63.39,55,0,8.05,ES,1675607733
316,lagos,6.5833,3.75,95.32,63,100,10.33,NG,1675607734
317,gandiaye,14.2333,-16.2667,93.27,7,29,6.91,SN,1675607734
318,erzurum,40.0,41.5,19.08,96,100,4.5,TR,1675607734
319,saga,33.2493,130.2988,39.04,55,0,3.44,JP,1675607735
320,hasaki,35.7333,140.8333,43.2,75,79,10.22,JP,1675607735
321,puerto escondido,15.85,-97.0667,74.23,88,0,5.75,MX,1675607736
322,bagaha,27.1,84.0833,61.65,58,0,6.58,IN,1675607736
323,sungairaya,0.7,108.9,77.09,90,100,4.38,ID,1675607736
324,mareeba,-17.0,145.4333,75.92,96,96,1.97,AU,1675607737
325,vestmannaeyjar,63.4427,-20.2734,47.39,93,100,39.12,IS,1675607737
326,kamaishi,39.2667,141.8833,30.4,76,14,5.68,JP,1675607738
327,batie,9.8833,-2.9167,100.18,9,31,6.38,BF,1675607738
328,maloy,61.9353,5.1136,42.73,69,64,11.34,NO,1675607738
329,kismayo,-0.3582,42.5454,77.61,76,68,16.4,SO,1675607739
330,san rafael,-34.6177,-68.3301,89.29,17,3,12.21,AR,1675607531
331,sitka,57.0531,-135.33,35.49,80,100,4.61,US,1675607540
332,dangriga,16.9692,-88.2321,73.53,83,2,6.55,BZ,1675607740
333,jerantut,3.936,102.3626,72.91,100,100,0.29,MY,1675607740
334,srivaikuntam,8.6167,77.9333,77.49,77,6,11.34,IN,1675607741
335,ciudad bolivar,8.1222,-63.5497,87.26,46,78,15.05,VE,1675607561
336,mnogovershinnyy,53.9353,139.9242,-13.25,96,96,3.69,RU,1675607741
337,salta,-24.7859,-65.4117,72.57,70,40,4.0,AR,1675607742
338,hersbruck,49.5125,11.4339,35.74,82,100,2.59,DE,1675607742
339,mega,4.05,38.3,79.59,12,7,16.28,ET,1675607743
340,vila franca do campo,37.7167,-25.4333,63.01,67,0,7.45,PT,1675607743
341,qena,26.1615,32.7183,69.04,23,94,8.63,EG,1675607743
342,leh,34.1667,77.5833,9.88,51,100,0.09,IN,1675607744
343,grindavik,63.8424,-22.4338,48.15,100,100,36.82,IS,1675607744
344,hamada,34.8833,132.0833,37.69,74,3,5.32,JP,1675607745
345,coquimbo,-29.9533,-71.3436,69.53,68,0,10.36,CL,1675607585
346,san joaquin,37.9333,-121.3011,51.93,86,75,6.91,US,1675607745
347,palmer,42.1584,-72.3287,36.25,53,40,12.66,US,1675607456
348,el tigre,8.8875,-64.2454,82.38,51,99,17.72,VE,1675607746
349,benjamin constant,-4.3831,-70.0311,75.33,94,100,2.3,BR,1675607747
350,oboyan,51.2098,36.2792,24.53,89,100,9.4,RU,1675607610
351,ostrovnoy,68.0531,39.5131,4.87,97,80,10.89,RU,1675607573
352,naze,28.3667,129.4833,63.52,72,100,11.65,JP,1675607747
353,beringovskiy,63.05,179.3167,-19.71,94,99,11.7,RU,1675607748
354,chapais,49.7834,-74.8492,4.78,88,100,7.4,CA,1675607591
355,mabay,6.0577,124.4666,77.68,84,100,1.3,PH,1675607749
356,tanout,14.9709,8.8879,93.58,9,68,8.86,NE,1675607749
357,beloha,-25.1667,45.05,76.84,75,100,17.47,MG,1675607749
358,guerande,47.3291,-2.4283,56.46,76,68,10.16,FR,1675607750
359,port said,31.2565,32.2841,62.58,55,0,11.5,EG,1675607750
360,mildura,-34.2,142.15,65.07,60,0,7.9,AU,1675607751
361,bilma,18.6853,12.9164,84.83,11,53,11.95,NE,1675607751
362,pilar,-9.5972,-35.9567,82.33,48,53,11.92,BR,1675607649
363,saposoa,-6.934,-76.7716,86.54,50,40,2.62,PE,1675607752
364,nyurba,63.2842,118.3319,-52.91,100,63,2.66,RU,1675607752
365,kudahuvadhoo,2.6708,72.8944,80.51,72,65,2.59,MV,1675607753
366,deputatskiy,69.3,139.9,-22.31,99,100,3.2,RU,1675607753
367,encheng,22.1839,112.3026,68.97,68,97,4.36,CN,1675607754
368,kingman,35.1894,-114.053,44.85,39,0,6.91,US,1675607754
369,bathsheba,13.2167,-59.5167,83.01,65,75,23.02,BB,1675607755
370,gat,31.61,34.7642,61.79,22,1,10.98,IL,1675607647
371,merrill,45.1805,-89.6835,16.9,89,69,8.28,US,1675607755
372,shieli,44.1667,66.75,33.85,74,18,7.74,KZ,1675607756
373,santa vitoria,-18.8386,-50.1214,78.33,74,100,2.73,BR,1675607756
374,itarema,-2.9248,-39.9167,83.17,71,76,12.46,BR,1675607757
375,monte escobedo,22.3,-103.5833,54.37,32,8,4.16,MX,1675607757
376,gibsons,49.3997,-123.5027,46.4,93,100,5.03,CA,1675607757
377,puksoozero,62.5903,40.6066,2.98,99,52,4.83,RU,1675607758
378,galle,6.0367,80.217,77.23,87,100,3.0,LK,1675607758
379,ossora,59.2353,163.0719,-12.15,83,15,4.41,RU,1675607759
380,cidreira,-30.1811,-50.2056,80.4,40,22,17.05,BR,1675607759
381,afyonkarahisar,38.75,30.6667,32.99,73,100,16.53,TR,1675607760
382,kyshtovka,56.555,76.6271,-2.88,100,99,2.19,RU,1675607760
383,bhatapara,21.7333,81.9333,72.37,16,0,6.24,IN,1675607761
384,campbell river,50.0163,-125.2446,45.93,100,100,4.61,CA,1675607761
385,envira,-7.3,-70.2167,70.52,99,100,1.23,BR,1675607762
386,farah,32.5,62.5,54.18,53,0,2.89,AF,1675607763
387,warri,5.5167,5.75,90.88,50,100,3.87,NG,1675607539
388,poya,-21.35,165.15,80.82,87,86,5.48,NC,1675607764
389,svetlaya,46.5389,138.3297,11.43,81,4,6.26,RU,1675607764
390,sadiqabad,28.3062,70.1307,73.65,26,0,4.43,PK,1675607765
391,natal,-5.795,-35.2094,88.45,62,40,11.5,BR,1675607694
392,touba,8.2833,-7.6833,97.21,12,25,5.44,CI,1675607766
393,puerto leguizamo,-0.1934,-74.7819,81.18,72,99,2.73,CO,1675607767
394,tuatapere,-46.1333,167.6833,56.77,92,98,8.72,NZ,1675607768
395,kandrian,-6.2167,149.55,78.21,85,93,4.21,PG,1675607770
396,krasnoarmeysk,51.0239,45.6969,10.45,99,100,4.0,RU,1675607770
397,saint-denis,48.9167,2.3333,50.34,59,75,18.41,FR,1675607771
398,boras,57.721,12.9401,33.12,97,100,3.53,SE,1675607625
399,yingcheng,30.95,113.55,50.36,69,99,5.84,CN,1675607772
400,ende,-8.8432,121.6623,78.01,90,100,5.08,ID,1675607773
401,harvard,42.4222,-88.6137,35.78,87,73,9.69,US,1675607774
402,senador pompeu,-5.5881,-39.3717,91.51,43,26,6.44,BR,1675607775
403,opotiki,-38.0833,177.2833,68.38,94,100,5.28,NZ,1675607776
404,turbat,26.0023,63.044,75.69,38,0,14.5,PK,1675607776
405,touros,-5.1989,-35.4608,87.12,59,67,12.19,BR,1675607777
406,kuryk,43.2,51.65,38.43,61,100,10.0,KZ,1675607778
407,shambu,9.5667,37.1,68.68,14,47,2.62,ET,1675607779
408,khatanga,71.9667,102.5,-24.79,92,100,5.48,RU,1675607780
409,srednekolymsk,67.45,153.6833,-33.38,99,100,7.07,RU,1675607781
410,fukue,32.6881,128.8419,49.8,51,68,8.77,JP,1675607782
411,upata,8.0086,-62.3989,80.19,53,76,10.65,VE,1675607782
412,noshiro,40.2039,140.0242,35.04,72,100,7.56,JP,1675607783
413,firminopolis,-16.5819,-50.305,78.35,76,100,1.41,BR,1675607785
414,rio grande,-32.035,-52.0986,78.91,75,84,13.58,BR,1675607786
415,fez,34.0372,-4.9998,62.85,29,0,8.05,MA,1675607787
416,tomatlan,19.9333,-105.25,73.78,42,1,1.92,MX,1675607787
417,codajas,-3.8367,-62.0569,87.85,60,92,2.19,BR,1675607788
418,pangnirtung,66.1451,-65.7125,-28.93,97,100,1.52,CA,1675607788
419,xining,36.6167,101.7667,27.18,53,10,2.3,CN,1675607789
420,san quintin,30.4833,-115.95,55.06,84,0,8.77,MX,1675607789
421,las cruces,32.3123,-106.7783,52.2,39,0,4.61,US,1675607790
422,urmary,55.6789,47.944,1.15,100,85,1.9,RU,1675607790
423,tulum,20.2167,-87.4667,73.87,86,14,3.94,MX,1675607791
424,tezu,27.9167,96.1667,63.41,36,3,4.65,IN,1675607791
425,bosaso,11.2842,49.1816,76.98,73,20,13.8,SO,1675607527
426,banda aceh,5.5577,95.3222,78.69,79,96,3.06,ID,1675607792
427,mount gambier,-37.8333,140.7667,52.43,93,37,3.71,AU,1675607668
428,anchorage,61.2181,-149.9003,21.63,92,100,6.91,US,1675607508
429,melo,-32.3667,-54.1833,81.95,43,73,10.13,UY,1675607793
430,aitape,-3.1374,142.3475,79.03,86,100,2.01,PG,1675607793
431,buala,-8.145,159.5921,76.86,96,100,12.28,SB,1675607793
432,pombas,17.1503,-25.0201,73.18,55,100,18.01,CV,1675607794
433,itaituba,-4.2761,-55.9836,80.76,89,75,6.91,BR,1675607794
434,santa cruz,-17.8,-63.1667,77.05,83,75,12.66,BO,1675607795
435,sijunjung,-0.6876,100.9537,72.43,89,100,2.1,ID,1675607795
436,tocopilla,-22.092,-70.1979,75.42,73,0,4.61,CL,1675607796
437,corowa,-36.0333,146.3833,56.41,84,0,4.72,AU,1675607796
438,noumea,-22.2763,166.4572,84.0,99,75,11.14,NC,1675607797
439,caceres,39.522,-6.3748,58.14,47,0,9.86,ES,1675607527
440,cap malheureux,-19.9842,57.6142,82.47,76,61,5.01,MU,1675607797
441,nome,64.5011,-165.4064,15.87,79,100,8.05,US,1675607798
442,am timan,11.0297,20.2827,97.77,7,34,4.05,TD,1675607798
443,zambezi,-13.5432,23.1047,74.26,80,71,6.13,ZM,1675607798
444,sao miguel do araguaia,-13.275,-50.1628,83.73,67,100,4.21,BR,1675607799
445,catazaja,17.725,-92.0167,68.85,88,38,4.12,MX,1675607799
446,ahuimanu,21.4447,-157.8378,73.11,89,75,16.11,US,1675607800
447,birjand,32.8663,59.2211,48.67,27,0,9.22,IR,1675607800
448,tiarei,-17.5333,-149.3333,77.02,76,100,14.7,PF,1675607801
449,portland,45.5234,-122.6762,46.38,95,100,8.01,US,1675607801
450,abu samrah,35.3029,37.1841,42.8,92,100,6.4,SY,1675607801
451,asosa,10.0667,34.5333,85.48,14,33,5.5,ET,1675607802
452,zhezkazgan,47.8043,67.7144,28.38,100,100,11.18,KZ,1675607803
453,cheremukhovo,60.3484,59.9851,14.22,98,100,0.45,RU,1675607803
454,new glasgow,45.5834,-62.6486,15.78,63,96,12.93,CA,1675607804
455,sistranda,63.7256,8.834,37.36,58,87,21.43,NO,1675607804
456,nioro,13.35,-15.75,95.54,7,71,7.27,GM,1675607804
457,dalnerechensk,45.9339,133.7225,-6.97,100,77,3.44,RU,1675607805
458,toora-khem,52.4675,96.11,5.11,98,100,0.22,RU,1675607805
459,puerto del rosario,28.5004,-13.8627,65.95,55,0,8.05,ES,1675607806
460,umm lajj,25.0213,37.2685,69.57,52,20,8.08,SA,1675607806
461,sartana,47.1744,37.6927,34.02,70,100,9.78,UA,1675607807
462,shellbrook,53.2168,-106.4011,25.83,96,48,7.81,CA,1675607807
463,gola bazar,26.3431,83.3553,60.87,56,0,5.75,IN,1675607807
464,songea,-10.6833,35.65,76.35,73,75,11.5,TZ,1675607808
465,sivas,39.7916,37.0019,21.83,93,75,4.61,TR,1675607808
466,svetlogorsk,52.6333,29.7333,25.34,84,100,11.61,BY,1675607809
467,mae ramat,16.984,98.5166,73.2,75,7,0.4,TH,1675607809
468,atar,20.5169,-13.0499,77.95,13,15,11.25,MR,1675607810
469,roebourne,-20.7833,117.1333,90.18,47,14,13.78,AU,1675607810
470,alibag,18.6411,72.8792,80.67,69,34,6.02,IN,1675607762
471,chokwe,-24.5333,32.9833,87.98,41,51,14.07,MZ,1675607811
472,jalu,29.0331,21.5482,63.61,46,93,20.2,LY,1675607811
473,novoorsk,51.381,58.9813,11.05,97,37,8.23,RU,1675607811
474,caconda,-13.7333,15.0667,62.29,71,100,5.37,AO,1675607812
475,waipawa,-41.4122,175.5153,64.15,83,100,17.87,NZ,1675607812
476,belaya gora,68.5333,146.4167,-29.7,100,100,1.07,RU,1675607813
477,sao filipe,14.8961,-24.4956,73.69,55,5,10.0,CV,1675607594
478,warren,39.4334,-84.1666,44.15,60,0,13.8,US,1675607813
479,okhotsk,59.3833,143.3,-15.52,83,68,9.37,RU,1675607542
480,basti,26.8,82.7167,60.76,56,0,5.68,IN,1675607814
481,saint-georges,12.0564,-61.7485,82.08,74,75,24.16,GD,1675607814
482,siayan,8.2667,123.1,74.17,93,63,3.67,PH,1675607815
483,castrillon,43.3979,-6.7922,52.36,66,17,6.58,ES,1675607815
484,zvishavane,-20.3267,30.0665,83.21,37,86,7.2,ZW,1675607616
485,maragogi,-9.0122,-35.2225,83.73,68,44,8.81,BR,1675607816
486,analipsis,35.3167,25.5667,52.11,93,97,29.04,GR,1675607816
487,kloulklubed,7.0419,134.2556,79.3,75,100,18.52,PW,1675607817
488,anadyr,64.75,177.4833,-28.7,75,0,8.95,RU,1675607817
489,tulle,45.3333,1.8333,46.54,63,44,8.34,FR,1675607818
490,bandarbeyla,9.4942,50.8122,76.77,69,53,15.97,SO,1675607818
491,polovinnoye,54.7914,65.9864,5.2,93,97,8.41,RU,1675607819
492,paamiut,61.994,-49.6678,14.2,88,100,11.25,GL,1675607819
493,fare,-16.7,-151.0167,80.94,75,23,15.75,PF,1675607820
494,karratha,-20.7377,116.8463,89.15,52,13,12.8,AU,1675607560
495,key largo,25.0865,-80.4473,76.98,81,0,10.85,US,1675607803
496,inhambane,-23.865,35.3833,82.85,64,4,15.77,MZ,1675607821
497,the valley,18.217,-63.0578,78.94,69,20,16.11,AI,1675607821
498,jaisalmer,26.9147,70.9181,75.79,27,0,10.69,IN,1675607822
499,griffith,41.5284,-87.4237,39.09,75,0,11.5,US,1675607823
500,nanakuli,21.3906,-158.1547,73.35,76,40,5.75,US,1675607823
501,le port,-20.9373,55.2919,84.2,83,80,7.29,RE,1675607824
502,kazachinskoye,57.6953,93.2761,-6.63,100,95,2.57,RU,1675607824
503,zatoka,46.0725,30.4654,32.68,62,100,22.48,UA,1675607825
504,malakal,9.5334,31.6605,96.4,10,43,6.98,SS,1675607826
505,jacareacanga,-6.2222,-57.7528,80.87,75,96,2.37,BR,1675607826
506,ancud,-41.8697,-73.8203,63.68,82,26,7.23,CL,1675607687
507,goderich,43.7501,-81.7165,35.92,75,100,17.27,CA,1675607827
508,souillac,-20.5167,57.5167,82.78,78,40,6.91,MU,1675607828
509,barabai,-2.5833,115.3833,75.43,84,100,2.04,ID,1675607829
510,lavumisa,-27.31,31.892,83.7,51,9,9.89,SZ,1675607829
511,ixtapa,20.7,-105.2,60.03,100,0,0.0,MX,1675607830
512,villarrobledo,39.2699,-2.6012,62.78,20,0,11.81,ES,1675607830
513,mfou,3.7159,11.6427,89.46,40,40,6.91,CM,1675607831
514,narimanov,46.6927,47.8498,28.31,91,98,6.76,RU,1675607832
515,kenai,60.5544,-151.2583,20.14,94,100,19.57,US,1675607832
516,cao bang,22.6667,106.25,61.99,98,100,1.99,VN,1675607833
517,churapcha,62.0025,132.4325,-29.27,99,99,3.38,RU,1675607834
518,havelock,34.8791,-76.9013,48.18,62,100,6.91,US,1675607834
519,muli,2.9167,73.5667,81.5,70,96,3.13,MV,1675607835
520,aswan,24.0934,32.907,72.7,20,0,11.5,EG,1675607836
521,buraydah,26.326,43.975,70.25,24,70,3.53,SA,1675607782
522,dingle,10.9995,122.6711,74.68,91,100,7.47,PH,1675607837
523,bud,39.447,-86.1758,44.33,63,100,15.66,US,1675607837
524,somovo,51.741,39.3665,28.9,69,75,4.47,RU,1675607838
525,burnie,-41.0667,145.9167,56.88,73,68,13.18,AU,1675607587
526,tungor,53.3808,142.9564,-7.02,96,100,8.55,RU,1675607839
527,skjervoy,70.0311,20.9714,39.2,90,100,36.01,NO,1675607840
528,pundaguitan,6.3711,126.1689,81.14,75,95,9.89,PH,1675607840
529,bubaque,11.2833,-15.8333,78.67,52,22,8.88,GW,1675607841
530,gotsu,35.0,132.2167,39.47,71,2,5.12,JP,1675607841
531,zaigrayevo,51.8336,108.2703,-4.68,99,28,3.18,RU,1675607843
