City_ID,City,Lat,Lng,Max Temp,Humidity,Cloudiness,Wind Speed,Country,Date
0,kysyl-syr,63.8986,122.7617,-50.96,100,85,3.74,RU,1675620961
1,vaini,-21.2,-175.2,79.43,75,67,5.55,TO,1675620962
2,punta arenas,-53.15,-70.9167,53.71,43,0,35.68,CL,1675620962
3,port hardy,50.6996,-127.4199,42.98,93,75,6.91,CA,1675620936
4,kapaa,22.0752,-159.319,73.72,92,100,16.11,US,1675620963
5,bluff,-46.6,168.3333,59.4,87,94,33.62,NZ,1675620963
6,sitka,57.0531,-135.33,37.29,81,20,9.22,US,1675620964
7,manono,-7.3,27.4167,70.77,85,100,3.53,CD,1675620964
8,kulebaki,55.4133,42.5325,18.86,97,100,3.29,RU,1675620965
9,chapleau,47.8405,-83.4034,10.49,79,100,6.91,CA,1675620935
10,namibe,-15.1961,12.1522,72.82,76,57,7.92,AO,1675620766
11,alto araguaia,-17.3147,-53.2153,78.84,71,100,1.52,BR,1675620966
12,puerto ayora,-0.7393,-90.3518,85.96,88,39,8.01,EC,1675620967
13,klaksvik,62.2266,-6.589,47.32,93,100,34.0,FO,1675620453
14,thompson,55.7435,-97.8558,1.56,78,75,3.44,CA,1675620968
15,uvinza,-5.1036,30.3911,66.38,92,46,3.27,TZ,1675620968
16,rikitea,-23.1203,-134.9692,78.64,75,9,15.97,PF,1675620969
17,airai,-8.9266,125.4092,60.24,94,100,1.41,TL,1675620969
18,katsuura,35.1333,140.3,47.77,82,17,6.49,JP,1675620764
19,laguna,38.421,-121.4238,56.05,78,100,14.97,US,1675620970
20,andenes,69.3143,16.1194,39.18,48,0,26.46,NO,1675620971
21,hami,42.8,93.45,29.68,39,10,1.16,CN,1675620971
22,albany,42.6001,-73.9662,41.95,48,100,3.0,US,1675620948
23,lebu,-37.6167,-73.65,66.27,75,26,19.3,CL,1675620692
24,tevaitoa,-16.7833,-151.5,81.18,76,51,15.12,PF,1675620972
25,chokurdakh,70.6333,147.9167,-39.5,100,97,3.29,RU,1675620972
26,jamestown,42.097,-79.2353,45.99,33,100,14.97,US,1675620889
27,rio grande,-32.035,-52.0986,80.71,72,56,14.88,BR,1675620890
28,nuuk,64.1835,-51.7216,12.81,79,75,10.36,GL,1675620974
29,kangaatsiaq,68.3065,-53.4641,-5.67,87,100,11.7,GL,1675620974
30,mataura,-46.1927,168.8643,57.87,90,99,10.04,NZ,1675620975
31,portland,45.5234,-122.6762,49.08,92,75,14.0,US,1675620694
32,vardo,70.3705,31.1107,19.38,86,40,18.41,NO,1675620977
33,hermanus,-34.4187,19.2345,69.8,80,97,8.57,ZA,1675620977
34,hobart,-42.8794,147.3294,58.05,76,94,5.75,AU,1675620860
35,fukue,32.6881,128.8419,50.31,53,84,11.63,JP,1675620978
36,ushuaia,-54.8,-68.3,46.06,71,40,26.46,AR,1675620979
37,mar del plata,-38.0023,-57.5575,88.83,37,0,17.27,AR,1675620904
38,port elizabeth,-33.918,25.5701,79.11,96,38,7.0,ZA,1675620698
39,hithadhoo,-0.6,73.0833,81.14,70,69,11.14,MV,1675620940
40,kaitangata,-46.2817,169.8464,55.6,91,97,6.46,NZ,1675620980
41,sao jose da coroa grande,-8.8978,-35.1478,83.23,70,32,9.75,BR,1675620876
42,tiksi,71.6872,128.8694,-29.63,100,100,3.36,RU,1675620980
43,oussouye,12.485,-16.5469,89.78,23,68,12.33,SN,1675620981
44,fare,-16.7,-151.0167,81.37,75,18,15.68,PF,1675620981
45,bengkulu,-3.8004,102.2655,74.17,91,99,7.05,ID,1675620982
46,honningsvag,70.9821,25.9704,28.15,86,100,23.02,NO,1675620946
47,nome,64.5011,-165.4064,15.87,79,75,6.91,US,1675620983
48,saskylakh,71.9167,114.0833,-40.74,100,100,3.96,RU,1675620983
49,olinda,-8.0089,-34.8553,83.93,70,40,6.91,BR,1675620759
50,coihaique,-45.5752,-72.0662,71.55,35,20,8.05,CL,1675620984
51,busselton,-33.65,115.3333,65.86,84,6,14.32,AU,1675620984
52,atuona,-9.8,-139.0333,78.3,78,11,16.87,PF,1675620985
53,saldanha,-33.0117,17.9442,69.85,88,25,19.86,ZA,1675620986
54,khatanga,71.9667,102.5,-29.72,95,98,5.32,RU,1675620987
55,thinadhoo,0.5333,72.9333,80.73,69,74,9.28,MV,1675620453
56,qaanaaq,77.484,-69.3632,-2.79,63,0,8.7,GL,1675620987
57,comodoro rivadavia,-45.8667,-67.5,63.7,64,48,17.58,AR,1675620717
58,itaperucu,-25.22,-49.3478,81.55,55,68,3.71,BR,1675620988
59,kang,-23.6752,22.7876,78.35,51,95,7.07,BW,1675620989
60,tieling,42.2931,123.8414,18.45,74,36,4.99,CN,1675620989
61,huanren,41.2647,125.3667,20.97,96,100,1.03,CN,1675620989
62,akhnur,32.8667,74.7333,61.63,49,100,4.9,IN,1675620990
63,nemuro,43.3236,145.575,23.95,83,21,10.6,JP,1675620990
64,bambous virieux,-20.3428,57.7575,80.22,89,20,3.44,MU,1675620859
65,ponta do sol,32.6667,-17.1,63.23,49,32,4.18,PT,1675620878
66,prince rupert,54.3161,-130.3201,40.69,79,100,8.05,CA,1675620991
67,guaira,-20.3183,-48.3106,80.94,74,100,3.96,BR,1675620878
68,hilo,19.7297,-155.09,75.27,95,100,5.75,US,1675620921
69,oistins,13.0667,-59.5333,82.49,65,40,24.16,BB,1675620882
70,navalmoral de la mata,39.8916,-5.5406,53.96,59,4,3.18,ES,1675620992
71,ribeira grande,38.5167,-28.7,61.77,88,20,11.99,PT,1675620993
72,nikolskoye,59.7035,30.7861,22.91,83,100,7.36,RU,1675620993
73,torbay,47.6666,-52.7314,27.57,72,75,31.07,CA,1675620994
74,goderich,43.7501,-81.7165,38.91,75,100,16.11,CA,1675620994
75,buala,-8.145,159.5921,77.23,95,100,13.24,SB,1675620995
76,cape town,-33.9258,18.4232,71.35,81,20,18.41,ZA,1675620995
77,viedma,-40.8135,-62.9967,97.72,13,79,14.38,AR,1675620995
78,contamana,-7.3333,-75.0167,91.83,41,89,2.77,PE,1675620996
79,georgetown,5.4112,100.3354,76.95,99,20,2.3,MY,1675620996
80,palmares do sul,-30.2578,-50.5097,82.04,51,6,13.98,BR,1675620997
81,murray,40.6669,-111.888,43.5,73,100,14.97,US,1675620997
82,arraial do cabo,-22.9661,-42.0278,87.76,70,40,8.05,BR,1675620997
83,provideniya,64.3833,-173.3,0.9,96,97,10.0,RU,1675620998
84,anadyr,64.75,177.4833,-28.7,75,20,8.95,RU,1675620998
85,hofn,64.2539,-15.2082,45.03,99,100,20.85,IS,1675620999
86,norman wells,65.282,-126.8329,-27.36,68,75,2.3,CA,1675620912
87,yarkovo,57.4028,67.0786,6.08,99,100,2.68,RU,1675620999
88,leningradskiy,69.3833,178.4167,-25.98,98,100,4.52,RU,1675620778
89,new norfolk,-42.7826,147.0587,57.7,63,96,3.0,AU,1675621000
90,dingle,10.9995,122.6711,73.99,92,100,7.34,PH,1675620717
91,los llanos de aridane,28.6585,-17.9182,62.35,78,75,10.36,ES,1675621000
92,chuy,-33.6971,-53.4616,78.28,49,10,10.85,UY,1675620825
93,najran,17.4924,44.1277,70.45,28,100,2.57,SA,1675620947
94,barrow,71.2906,-156.7887,-18.38,76,100,8.05,US,1675621001
95,kruisfontein,-34.0033,24.7314,76.89,80,13,12.75,ZA,1675620773
96,saint-augustin,51.226,-58.6502,3.6,67,97,10.63,CA,1675620927
97,corinto,37.9407,22.9573,42.89,90,100,14.27,GR,1675621002
98,point pedro,9.8167,80.2333,76.87,78,97,12.8,LK,1675621003
99,amahai,-3.3333,128.9167,77.14,84,100,6.96,ID,1675621003
100,cockburn town,21.4612,-71.1419,77.22,77,4,21.12,TC,1675621004
101,lompoc,34.6391,-120.4579,60.53,84,75,14.97,US,1675621004
102,shenjiamen,29.9576,122.298,51.53,96,100,11.39,CN,1675621004
103,ahipara,-35.1667,173.1667,63.57,93,98,7.7,NZ,1675621005
104,diapaga,12.0708,1.7889,90.91,8,100,4.94,BF,1675621005
105,souillac,-20.5167,57.5167,79.18,89,20,3.44,MU,1675621006
106,aswan,24.0934,32.907,65.12,21,32,3.96,EG,1675621006
107,carnarvon,-24.8667,113.6333,76.98,76,2,13.82,AU,1675620746
108,saint-michel-des-saints,46.6834,-73.9159,23.63,94,100,6.6,CA,1675621007
109,namatanai,-3.6667,152.4333,78.04,81,99,3.06,PG,1675621007
110,saint-philippe,-21.3585,55.7679,80.19,86,89,9.95,RE,1675620872
111,iqaluit,63.7506,-68.5145,-20.31,68,100,21.0,CA,1675621008
112,constitucion,-35.3333,-72.4167,69.21,70,43,8.16,CL,1675621008
113,abu dhabi,24.4667,54.3667,68.11,80,0,2.3,AE,1675620711
114,caninde,-4.3589,-39.3117,91.96,39,84,6.71,BR,1675621009
115,mahebourg,-20.4081,57.7,80.26,89,20,3.44,MU,1675621002
116,butaritari,3.0707,172.7902,80.47,82,87,18.57,KI,1675620883
117,castro,-24.7911,-50.0119,75.0,64,78,5.37,BR,1675621010
118,tura,25.5198,90.2201,59.45,44,0,2.75,IN,1675621010
119,northampton,40.8754,-75.2499,46.44,43,100,10.4,US,1675621011
120,port alfred,-33.5906,26.891,71.19,90,6,3.0,ZA,1675620745
121,vostok,46.4856,135.8833,-6.11,100,99,3.67,RU,1675621011
122,kasiri,8.9412,-13.1148,80.78,55,63,12.93,SL,1675621012
123,pochutla,15.7432,-96.4661,89.42,39,0,7.83,MX,1675620742
124,moose factory,51.2585,-80.6094,1.4,71,75,4.61,CA,1675621012
125,bredasdorp,-34.5322,20.0403,71.15,73,88,9.15,ZA,1675621013
126,damietta,31.4165,31.8133,58.82,43,45,17.92,EG,1675621013
127,avarua,-21.2078,-159.775,80.65,83,40,13.8,CK,1675620929
128,malinovskiy,61.1953,62.8397,6.98,98,100,1.74,RU,1675621014
129,rocha,-34.4833,-54.3333,79.3,48,34,9.42,UY,1675621014
130,masterton,-40.9597,175.6575,64.89,80,86,10.83,NZ,1675621015
131,harper,4.375,-7.7169,81.93,78,100,10.54,LR,1675620958
132,havoysund,70.9963,24.6622,28.63,85,100,38.72,NO,1675621015
133,husavik,66.0449,-17.3389,45.07,81,100,30.38,IS,1675621016
134,talnakh,69.4865,88.3972,-0.8,97,100,3.56,RU,1675620733
135,lagoa,39.05,-27.9833,59.58,84,68,18.61,PT,1675621017
136,boa vista,2.8197,-60.6733,82.38,65,75,13.8,BR,1675620772
137,muros,42.7762,-9.0603,55.83,59,0,6.26,ES,1675621017
138,zaysan,47.4667,84.8667,15.39,86,96,4.18,KZ,1675620888
139,yumen,40.2833,97.2,25.61,41,3,8.97,CN,1675621018
140,sivas,39.7916,37.0019,21.83,93,75,9.22,TR,1675621018
141,shimoda,34.6667,138.95,46.96,67,30,8.37,JP,1675621019
142,kahului,20.8947,-156.47,75.85,85,40,13.0,US,1675621019
143,dikson,73.5069,80.5464,-3.71,97,100,2.48,RU,1675621020
144,margate,51.3813,1.3862,43.7,80,95,5.99,GB,1675621020
145,victoria,22.2855,114.1577,66.94,88,87,3.0,HK,1675621021
146,pisco,-13.7,-76.2167,77.05,78,0,10.36,PE,1675621021
147,mikhaylovka,50.06,43.2379,18.41,96,97,5.21,RU,1675621022
148,longyearbyen,78.2186,15.6401,24.64,74,40,37.98,SJ,1675620773
149,tuktoyaktuk,69.4541,-133.0374,-47.2,66,20,3.44,CA,1675621022
150,jardim,-21.4803,-56.1381,81.73,64,41,3.42,BR,1675620794
151,montalvo,-1.8,-79.3333,84.02,77,75,3.53,EC,1675621023
152,kaseda,31.4167,130.3167,52.21,84,100,5.82,JP,1675621023
153,chongwe,-15.3292,28.682,66.58,95,100,3.94,ZM,1675621024
154,ancud,-41.8697,-73.8203,64.13,77,48,10.4,CL,1675620743
155,tasiilaq,65.6145,-37.6368,24.96,83,100,9.1,GL,1675620802
156,alice springs,-23.7,133.8833,56.75,77,0,5.75,AU,1675621025
157,rorvik,64.8621,11.2373,37.51,65,20,5.75,NO,1675621025
158,upernavik,72.7868,-56.1549,-14.89,96,99,1.63,GL,1675621026
159,kyzburun pervyy,43.6517,43.395,26.73,88,99,3.49,RU,1675621027
160,soverato,38.685,16.5499,42.75,50,4,10.69,IT,1675621028
161,sipe sipe,-17.45,-66.3833,63.09,86,100,2.66,BO,1675621028
162,toora-khem,52.4675,96.11,3.07,99,99,0.16,RU,1675621028
163,villa del rosario,7.8339,-72.4742,84.58,48,40,25.32,CO,1675621029
164,mount gambier,-37.8333,140.7667,52.07,94,38,3.98,AU,1675620787
165,uyuni,-20.4597,-66.825,52.83,58,100,7.85,BO,1675621029
166,orange,33.7,-117.7675,62.29,86,75,4.61,US,1675620331
167,port blair,11.6667,92.75,80.64,83,40,3.44,IN,1675621030
168,pingxiang,27.6167,113.85,47.52,98,98,0.63,CN,1675621031
169,nabire,-3.3667,135.4833,75.49,94,100,1.99,ID,1675621031
170,launceston,-41.45,147.1667,54.16,89,81,0.0,AU,1675620890
171,labuhan,-6.8844,112.2051,77.92,84,100,7.87,ID,1675621032
172,yellowknife,62.456,-114.3525,-14.28,76,100,9.22,CA,1675620765
173,esmeraldas,-19.7625,-44.3139,95.11,63,21,6.53,BR,1675621032
174,praia,14.9215,-23.5087,75.74,57,20,20.71,CV,1675620849
175,trinidad,-14.8333,-64.9,78.78,83,75,6.91,BO,1675621033
176,severo-kurilsk,50.6789,156.125,24.1,79,94,7.76,RU,1675621034
177,vao,-22.6667,167.4833,79.05,87,73,18.28,NC,1675620933
178,bandarbeyla,9.4942,50.8122,75.76,73,67,16.6,SO,1675621035
179,srednekolymsk,67.45,153.6833,-35.09,100,100,5.86,RU,1675620742
180,billings,45.7833,-108.5007,41.5,68,75,4.61,US,1675620855
181,sambava,-14.2667,50.1667,77.34,89,100,7.87,MG,1675621035
182,tahta,26.7693,31.5021,60.17,33,83,6.13,EG,1675621036
183,necochea,-38.5473,-58.7368,89.58,29,53,3.0,AR,1675621036
184,palana,59.1167,159.9667,-13.85,99,41,5.06,RU,1675621037
185,marsh harbour,26.5412,-77.0636,75.04,75,79,21.61,BS,1675621037
186,takoradi,4.8845,-1.7554,82.67,77,96,11.68,GH,1675621038
187,jalu,29.0331,21.5482,57.85,64,68,17.27,LY,1675621038
188,jodar,37.8406,-3.3526,52.48,34,2,2.93,ES,1675621038
189,ostersund,63.1792,14.6357,30.61,86,0,13.8,SE,1675620892
190,black river,18.0264,-77.8487,86.23,50,2,14.45,JM,1675621039
191,sisimiut,66.9395,-53.6735,-4.14,96,100,7.94,GL,1675621040
192,poum,-20.2333,164.0167,83.07,82,27,19.26,NC,1675621040
193,mayo,38.8876,-76.5119,53.51,40,0,9.22,US,1675621041
194,guerrero negro,27.9769,-114.0611,63.63,64,0,13.02,MX,1675621041
195,jacqueville,5.2052,-4.4146,81.0,83,56,13.09,CI,1675621041
196,manzanillo,20.3433,-77.1167,87.12,43,0,7.38,CU,1675621042
197,abu samrah,35.3029,37.1841,42.17,95,100,3.29,SY,1675621042
198,sungairaya,0.7,108.9,76.46,91,100,2.57,ID,1675621043
199,bethel,41.3712,-73.414,45.41,46,0,8.05,US,1675620700
200,daru,-9.0763,143.2092,76.32,92,100,4.03,PG,1675621044
201,fortuna,40.5982,-124.1573,48.65,96,75,0.0,US,1675621044
202,parana,-31.732,-60.5238,92.55,32,0,5.99,AR,1675621031
203,kieta,-6.2167,155.6333,78.22,84,100,2.04,PG,1675621045
204,bucarasica,8.041,-72.8654,76.1,39,29,5.86,CO,1675621045
205,datong,40.0936,113.2914,28.06,34,93,4.07,CN,1675621046
206,kavieng,-2.5744,150.7967,81.36,74,96,2.39,PG,1675621046
207,ostrovnoy,68.0531,39.5131,5.13,98,81,10.98,RU,1675621047
208,lagunas,-5.2269,-75.6753,95.79,35,69,2.15,PE,1675621047
209,kayerkan,69.3497,87.7602,-1.48,84,100,3.83,RU,1675621048
210,port lincoln,-34.7333,135.8667,60.89,84,4,10.92,AU,1675621048
211,tuatapere,-46.1333,167.6833,58.14,92,97,16.78,NZ,1675620636
212,tautira,-17.7333,-149.15,81.3,76,85,15.1,PF,1675621049
213,bowen,-20.0167,148.2333,81.3,84,34,12.15,AU,1675621049
214,itaituba,-4.2761,-55.9836,89.76,66,40,11.5,BR,1675621050
215,ipixuna,-1.7625,-48.8043,82.81,79,100,3.89,BR,1675621051
216,mount isa,-20.7333,139.5,76.77,94,100,6.91,AU,1675620882
217,clarence town,-32.5833,151.7833,72.55,94,0,1.5,AU,1675621051
218,nakapiripirit,1.9167,34.7833,76.48,28,54,10.25,UG,1675621052
219,camp verde,34.5636,-111.8543,65.7,32,1,6.11,US,1675621052
220,palauig,15.435,119.9045,76.82,76,47,3.87,PH,1675621053
221,sinnamary,5.3833,-52.95,78.64,86,99,14.63,GF,1675620971
222,qaqortoq,60.7167,-46.0333,20.95,82,100,7.47,GL,1675620829
223,vila velha,-20.3297,-40.2925,87.75,74,20,16.11,BR,1675620999
224,mayumba,-3.432,10.6554,79.29,84,45,7.07,GA,1675620840
225,fort nelson,58.8053,-122.7002,3.94,83,100,11.5,CA,1675621054
226,basoko,1.2391,23.616,82.13,37,7,2.84,CD,1675621055
227,sarkand,45.41,79.9186,28.22,86,99,5.55,KZ,1675621055
228,pevek,69.7008,170.3133,-38.38,100,71,2.39,RU,1675621055
229,soure,-0.7167,-48.5233,81.73,75,100,10.78,BR,1675621056
230,norilsk,69.3535,88.2027,-0.58,97,100,2.48,RU,1675621056
231,santarem,-2.4431,-54.7083,84.33,84,20,11.5,BR,1675620803
232,sao filipe,14.8961,-24.4956,71.82,58,19,9.78,CV,1675621057
233,cabo san lucas,22.8909,-109.9124,83.61,54,0,4.61,MX,1675620957
234,hambantota,6.1241,81.1185,76.96,84,100,11.16,LK,1675620870
235,chapais,49.7834,-74.8492,6.58,82,100,7.76,CA,1675621058
236,komsomolskiy,40.4272,71.7189,39.92,87,100,6.91,UZ,1675621058
237,nchelenge,-9.3451,28.734,70.54,79,95,2.3,ZM,1675621059
238,tuxtla,16.75,-93.1167,77.81,56,48,7.52,MX,1675621059
239,dunedin,-45.8742,170.5036,65.8,48,59,5.99,NZ,1675621060
240,jieshou,33.2634,115.3611,47.23,60,100,2.68,CN,1675621060
241,rawlins,41.7911,-107.2387,38.35,48,0,29.93,US,1675620818
242,nanortalik,60.1432,-45.2371,23.45,73,100,12.57,GL,1675620872
243,viking,53.1001,-111.7684,23.13,86,42,7.27,CA,1675621061
244,japura,-0.3167,102.35,73.62,97,100,3.71,ID,1675621062
245,wuwei,37.9281,102.6414,27.9,40,10,4.12,CN,1675621062
246,esperance,-33.8667,121.9,68.59,67,32,20.02,AU,1675620765
247,aklavik,68.2191,-135.0107,-47.2,66,20,2.3,CA,1675621063
248,plouzane,48.3833,-4.6167,46.45,84,0,8.05,FR,1675621063
249,bilibino,68.0546,166.4372,-28.32,100,100,1.83,RU,1675621064
250,qarayeri,40.7886,46.3066,34.68,55,40,6.91,AZ,1675621064
251,le port,-20.9373,55.2919,80.6,82,90,5.08,RE,1675621064
252,tiznit,29.5833,-9.5,56.57,36,62,5.46,MA,1675620848
253,paliyad,22.25,71.5667,71.69,26,0,10.87,IN,1675621065
254,deputatskiy,69.3,139.9,-24.39,98,100,3.58,RU,1675621065
255,khudumelapye,-23.8833,24.75,79.05,45,41,7.54,BW,1675621066
256,luderitz,-26.6481,15.1594,68.11,71,14,21.72,NA,1675621066
257,college,64.8569,-147.8028,-11.22,73,0,4.61,US,1675621028
258,hovd,48.0056,91.6419,3.56,80,8,3.47,MN,1675621067
259,kismayo,-0.3582,42.5454,76.19,84,47,15.28,SO,1675621067
260,kodinsk,58.6881,99.1844,-2.92,100,97,3.02,RU,1675621068
261,tucupita,9.0622,-62.051,89.08,43,80,10.13,VE,1675621068
262,mae hong son,19.3003,97.9685,68.38,63,35,0.89,TH,1675621068
263,ulma,48.3984,9.9916,35.56,95,100,4.0,DE,1675620990
264,jianhu,29.9799,120.5712,48.15,97,100,2.37,CN,1675621069
265,piacabucu,-10.4056,-36.4344,84.52,65,63,11.36,BR,1675621069
266,ossora,59.2353,163.0719,-12.51,81,12,4.56,RU,1675621070
267,lavrentiya,65.5833,-171.0,-3.89,96,100,9.17,RU,1675621070
268,port hedland,-20.3167,118.5667,80.65,89,5,5.75,AU,1675620979
269,cedar city,37.6775,-113.0619,45.57,42,0,21.85,US,1675621048
270,mancio lima,-7.6142,-72.8958,73.47,100,75,3.44,BR,1675621071
271,aljezur,37.3191,-8.8033,54.28,70,7,1.34,PT,1675621071
272,camacupa,-12.0167,17.4833,61.21,89,100,2.17,AO,1675621072
273,rabo de peixe,37.8,-25.5833,60.31,77,40,10.36,PT,1675621072
274,ilulissat,69.2167,-51.1,3.22,72,75,10.36,GL,1675621073
275,kyra,49.5776,111.9753,-2.83,94,100,4.68,RU,1675621073
276,nioro,13.35,-15.75,94.71,8,72,6.06,GM,1675621073
277,clyde river,70.4692,-68.5914,-14.57,64,100,12.66,CA,1675621074
278,portknockie,57.7025,-2.8599,44.46,60,100,18.01,GB,1675621074
279,changji,44.0167,87.3167,18.39,93,100,4.47,CN,1675620931
280,zhuhai,22.2769,113.5678,65.98,88,40,8.05,CN,1675621075
281,olonets,60.9847,32.9698,17.29,96,100,8.05,RU,1675621075
282,guanica,17.9716,-66.908,84.51,67,6,20.07,PR,1675621076
283,faanui,-16.4833,-151.75,81.64,73,46,15.97,PF,1675620931
284,grindavik,63.8424,-22.4338,46.87,93,100,39.12,IS,1675621076
285,batticaloa,7.7102,81.6924,77.36,82,100,9.55,LK,1675621077
286,carros,43.7894,7.184,49.71,79,75,20.71,FR,1675621077
287,ambon,-3.6954,128.1814,75.34,94,75,2.3,ID,1675621078
288,lukovetskiy,64.2956,41.9211,1.94,97,45,5.08,RU,1675621078
289,saint-francois,46.4154,3.9054,42.24,75,0,17.27,FR,1675621079
290,kavaratti,10.5669,72.642,80.92,74,6,8.1,IN,1675620922
291,geraldton,-28.7667,114.6,73.81,73,100,11.5,AU,1675620718
292,sola,-13.8833,167.55,83.28,72,100,22.28,VU,1675621079
293,bathsheba,13.2167,-59.5167,83.01,65,40,24.16,BB,1675621080
294,gavle,60.6745,17.1417,31.91,82,76,9.06,SE,1675621080
295,dospat,41.65,24.1667,14.7,78,100,13.18,BG,1675621081
296,chara,56.9064,118.2631,-10.37,79,57,1.95,RU,1675621081
297,bonavista,48.6499,-53.1147,23.52,66,78,21.16,CA,1675621082
298,yeppoon,-23.1333,150.7333,78.58,87,60,11.54,AU,1675621083
299,port angeles,48.1181,-123.4307,47.01,79,100,8.05,US,1675621083
300,alakurtti,66.9672,30.3491,7.7,98,99,0.72,RU,1675621084
301,sept-iles,50.2001,-66.3821,5.05,84,100,3.44,CA,1675620927
302,san cristobal,7.7669,-72.225,78.98,67,48,7.09,VE,1675620819
303,rio gallegos,-51.6226,-69.2181,62.65,19,20,37.98,AR,1675621085
304,beian,63.6559,9.5683,40.01,87,40,10.36,NO,1675621085
305,olafsvik,64.8945,-23.7142,44.91,91,94,40.02,IS,1675620890
306,finnsnes,69.2296,17.9811,36.21,73,100,12.48,NO,1675621086
307,evensk,61.95,159.2333,-17.07,79,29,8.19,RU,1675621087
308,roebourne,-20.7833,117.1333,88.27,51,14,12.97,AU,1675621087
309,flin flon,54.7682,-101.865,15.64,86,100,8.05,CA,1675620910
310,drochia,48.035,27.8161,25.27,83,100,13.67,MD,1675621088
311,batemans bay,-35.7167,150.1833,61.48,82,89,3.58,AU,1675621088
312,svobodnyy,51.4,128.1333,-21.64,100,61,1.54,RU,1675621044
313,north bend,43.4065,-124.2243,47.91,93,100,6.91,US,1675621029
314,canutama,-6.5339,-64.3831,83.05,81,85,0.94,BR,1675621089
315,dagshai,30.8833,77.05,43.3,56,1,5.03,IN,1675621090
316,arandis,-22.4167,14.9667,68.27,62,91,7.14,NA,1675621090
317,dickinson,29.4608,-95.0513,73.56,70,20,8.05,US,1675621091
318,kabinda,-6.1333,24.4833,68.41,89,40,4.43,CD,1675621091
319,kon tum,14.35,108.0,64.26,96,57,2.24,VN,1675621092
320,rantepao,-2.9701,119.8978,66.61,95,100,3.18,ID,1675621092
321,bontang,0.1333,117.5,78.22,86,98,7.11,ID,1675621093
322,berlevag,70.8578,29.0864,24.8,73,100,4.61,NO,1675621093
323,kodiak,57.79,-152.4072,36.91,100,100,33.38,US,1675621093
324,kisangani,0.5167,25.2,79.12,49,40,3.24,CD,1675621094
325,maldonado,-34.6667,-54.9167,79.99,46,56,10.92,UY,1675621094
326,muisne,0.6,-80.0333,81.52,73,37,10.42,EC,1675621095
327,severomuysk,56.1481,113.4267,-10.21,99,100,4.76,RU,1675621096
328,buin,-33.7333,-70.75,88.05,28,0,11.12,CL,1675621096
329,ajaccio,42.0,8.9167,49.98,76,75,5.75,FR,1675621097
330,ekhabi,53.5102,142.9671,-3.62,95,100,9.91,RU,1675621097
331,vanavara,60.34,102.2797,2.77,98,100,1.34,RU,1675621098
332,taksimo,56.3444,114.8794,-0.6,88,100,4.56,RU,1675621098
333,hualmay,-11.0964,-77.6139,77.25,69,44,8.59,PE,1675621099
334,san jose,37.3394,-121.895,55.02,83,75,4.61,US,1675620534
335,codrington,-38.2667,141.9667,56.32,85,45,6.26,AU,1675621100
336,aykhal,66.0,111.5,-36.54,100,61,2.89,RU,1675620950
337,belmonte,-15.8631,-38.8828,84.96,62,3,11.99,BR,1675621100
338,bud,39.447,-86.1758,48.88,64,87,16.78,US,1675621101
339,maiduguri,11.8464,13.1603,80.11,15,100,7.87,NG,1675621101
340,caravelas,-17.7125,-39.2481,86.13,61,0,13.22,BR,1675621102
341,praia da vitoria,38.7333,-27.0667,64.76,77,20,15.61,PT,1675621102
342,sivaki,52.6333,126.75,-17.64,100,68,2.93,RU,1675621103
343,kendari,-3.945,122.4989,76.42,91,99,2.57,ID,1675621103
344,cidreira,-30.1811,-50.2056,82.4,50,12,14.65,BR,1675621104
345,la ronge,55.1001,-105.2842,28.65,86,100,9.22,CA,1675620816
346,seoul,37.5683,126.9778,26.04,100,20,2.3,KR,1675621104
347,fiche,9.8,38.7333,53.51,33,18,7.11,ET,1675621105
348,half moon bay,37.4636,-122.4286,56.05,86,20,13.8,US,1675621105
349,gondar,12.6,37.4667,65.32,24,91,4.85,ET,1675621106
350,zhigansk,66.7697,123.3711,-43.64,97,97,2.75,RU,1675621107
351,sal rei,16.1833,-22.9167,73.6,53,75,17.27,CV,1675621025
352,puerto carreno,6.189,-67.4859,87.78,55,20,11.5,CO,1675621107
353,clinton,42.587,-82.9199,41.94,69,75,17.27,US,1675621108
354,iisalmi,63.5592,27.1907,25.63,97,100,4.34,FI,1675621108
355,podor,16.6527,-14.9587,85.53,9,63,6.87,MR,1675621109
356,buenaventura,3.8801,-77.0312,85.66,66,46,6.17,CO,1675620973
357,malko tarnovo,41.9833,27.5333,22.71,80,100,20.04,BG,1675621109
358,vestmannaeyjar,63.4427,-20.2734,47.39,100,100,37.98,IS,1675620876
359,nhulunbuy,-12.2333,136.7667,75.81,88,40,0.0,AU,1675621110
360,vila franca do campo,37.7167,-25.4333,61.21,78,1,6.87,PT,1675621111
361,tongliao,43.6125,122.2653,12.72,74,9,2.46,CN,1675621112
362,pozhva,59.0912,56.0847,4.75,100,100,4.88,RU,1675621112
363,tilichiki,60.4667,166.1,-22.02,94,11,8.34,RU,1675621113
364,sao joao da barra,-21.6403,-41.0511,91.49,77,12,10.78,BR,1675621113
365,zlobin,45.2924,14.6541,29.79,44,0,6.91,HR,1675621113
366,buzuluk,52.7807,52.2635,10.35,94,100,0.72,RU,1675621114
367,serro,-18.6047,-43.3794,78.19,76,58,3.58,BR,1675621114
368,palmer,42.1584,-72.3287,47.5,40,75,12.66,US,1675620976
369,xinxiang,35.3089,113.8672,42.31,52,83,1.3,CN,1675621115
370,yerbogachen,61.2767,108.0108,-26.05,100,95,2.44,RU,1675621115
371,strezhevoy,60.7333,77.5889,-6.36,100,99,2.42,RU,1675620877
372,sorland,67.667,12.6934,39.06,61,97,20.62,NO,1675621116
373,cherskiy,68.75,161.3,-41.67,100,100,5.03,RU,1675621100
374,lagos,6.5833,3.75,84.52,79,100,8.25,NG,1675621117
375,kalmunai,7.4167,81.8167,76.39,85,100,9.42,LK,1675621117
376,sakakah,29.9697,40.2064,58.57,33,98,7.96,SA,1675621117
377,yoichi,43.2039,140.7703,31.33,90,100,4.99,JP,1675621118
378,malanje,-9.5402,16.341,64.71,88,100,1.54,AO,1675621118
379,east london,-33.0153,27.9116,76.14,88,0,9.22,ZA,1675621119
380,avera,33.194,-82.5271,61.38,61,100,3.33,US,1675620907
381,xai-xai,-25.0519,33.6442,76.64,78,8,9.6,MZ,1675621120
382,aramil,56.6977,60.8369,14.11,85,94,0.0,RU,1675621120
383,cururupu,-1.8283,-44.8683,80.8,85,88,5.99,BR,1675621120
384,kabala,9.5833,-11.55,94.01,17,9,1.61,SL,1675621121
385,shunyi,40.125,116.6453,22.95,63,42,4.47,CN,1675621121
386,lata,40.1629,-8.3327,57.07,61,0,5.86,PT,1675621122
387,careiro da varzea,-3.2003,-59.8119,79.43,63,70,6.64,BR,1675621122
388,santiago del estero,-27.7951,-64.2615,93.09,28,37,8.34,AR,1675621123
389,hamilton,39.1834,-84.5333,53.04,53,100,21.85,US,1675621123
390,kroya,-7.6331,109.2461,77.74,86,100,7.18,ID,1675621123
391,inta,66.0317,60.1659,8.47,96,98,7.96,RU,1675621124
392,imbituba,-28.24,-48.6703,80.37,60,26,9.75,BR,1675621124
393,kosa,59.9445,54.9977,-4.67,100,97,3.18,RU,1675621125
394,te anau,-45.4167,167.7167,56.86,90,100,8.25,NZ,1675621125
395,yakeshi,49.2833,120.7333,-20.33,100,100,2.62,CN,1675621126
396,boma,7.0805,-2.1697,91.81,21,83,3.2,GH,1675621126
397,salalah,17.0151,54.0924,75.29,69,0,3.44,OM,1675621127
398,kirakira,-10.4544,161.9205,77.59,97,100,5.86,SB,1675621127
399,ust-ishim,57.6935,71.1665,0.77,100,100,2.15,RU,1675621127
400,narsaq,60.9167,-46.05,19.62,87,100,6.33,GL,1675621128
401,villa rica,33.7321,-84.9191,57.02,81,100,5.48,US,1675621010
402,jejuri,18.2833,74.1667,71.87,32,6,4.63,IN,1675621128
403,eldorado,-23.7869,-54.2836,87.08,43,71,5.17,BR,1675621129
404,bilma,18.6853,12.9164,74.66,14,32,12.24,NE,1675621129
405,kattivakkam,13.2167,80.3167,77.09,77,67,6.58,IN,1675621130
406,saldus,56.6636,22.4881,26.76,82,100,7.4,LV,1675621130
407,naze,28.3667,129.4833,63.52,76,100,12.75,JP,1675621130
408,houma,29.5958,-90.7195,69.01,59,40,3.44,US,1675621131
409,ojinaga,29.5667,-104.4167,72.57,51,0,0.0,MX,1675621131
410,russell,32.3502,-85.1999,64.38,55,0,4.61,US,1675620926
411,gemena,3.25,19.7667,82.02,25,23,2.13,CD,1675621132
412,touros,-5.1989,-35.4608,84.79,65,84,13.09,BR,1675621132
413,thunder bay,48.4001,-89.3168,12.18,62,100,8.05,CA,1675620855
414,yablochnyy,47.1661,142.0661,8.96,96,92,4.23,RU,1675621133
415,hervey bay,-25.2986,152.8535,77.86,89,96,11.23,AU,1675620879
416,anton lizardo,19.05,-95.9833,77.22,70,49,9.37,MX,1675621134
417,beloha,-25.1667,45.05,72.5,87,100,12.48,MG,1675621134
418,ibotirama,-12.1853,-43.2206,99.41,20,15,4.85,BR,1675620936
419,poli,-3.3333,36.8,67.73,43,98,2.17,TZ,1675621135
420,christchurch,-43.5333,172.6333,68.2,45,1,6.91,NZ,1675621028
421,pauini,-7.7136,-66.9764,81.03,72,99,1.74,BR,1675621136
422,vallenar,-28.5708,-70.7581,87.76,30,0,11.54,CL,1675621136
423,rawalpindi,33.6007,73.0679,59.23,69,100,2.75,PK,1675621137
424,sandomierz,50.6827,21.749,28.78,85,99,7.34,PL,1675621137
425,yako,12.9667,-2.2667,88.92,11,8,6.24,BF,1675621137
426,sangar,63.9242,127.4739,-40.25,99,99,3.8,RU,1675620977
427,hokitika,-42.7167,170.9667,62.58,84,28,19.04,NZ,1675621138
428,opuwo,-18.0607,13.84,75.97,29,76,12.86,NA,1675621012
429,carutapera,-1.195,-46.02,83.21,73,58,9.08,BR,1675621139
430,kokkola,63.8385,23.1307,30.92,95,0,4.61,FI,1675621139
431,amapa,1.0,-52.0,79.48,91,99,3.65,BR,1675621026
432,nampula,-15.1165,39.2666,76.95,78,40,8.05,MZ,1675621140
433,waiuku,-37.25,174.75,66.09,94,100,5.46,NZ,1675621140
434,marquette,46.5333,-87.6335,20.82,84,100,10.47,US,1675620650
435,weihe,32.9952,105.3247,40.75,78,100,2.64,CN,1675621141
436,javanrud,34.7961,46.5172,35.47,80,76,2.86,IR,1675621141
437,zaykovo,57.5613,62.7568,3.99,99,99,2.62,RU,1675621142
438,saint george,37.1041,-113.5841,53.44,39,20,0.0,US,1675621082
439,virginia beach,36.8529,-75.978,56.03,50,100,13.8,US,1675620845
440,fairbanks,64.8378,-147.7164,-11.2,74,0,4.61,US,1675621118
441,neuquen,-38.9516,-68.0591,98.49,9,0,11.5,AR,1675621048
442,kristiinankaupunki,62.2743,21.376,28.09,80,88,13.38,FI,1675621143
443,murgab,37.4966,61.9714,42.67,70,40,4.61,TM,1675621032
444,luchegorsk,46.4764,134.2569,-14.03,100,33,2.57,RU,1675621144
445,casper,42.8666,-106.3131,38.8,52,0,23.02,US,1675621084
446,kincardine,56.0667,-3.7167,42.78,86,100,5.14,GB,1675621144
447,beisfjord,68.3751,17.5988,37.04,92,100,6.35,NO,1675621145
448,oktyabrskiy,54.4815,53.471,13.33,95,100,2.33,RU,1675621145
449,myitkyina,25.3833,97.4,63.01,54,15,2.57,MM,1675621145
450,kolosovka,56.4678,73.611,0.05,98,100,3.6,RU,1675621146
451,rosarito,32.3333,-117.0333,61.41,79,19,6.35,MX,1675621146
452,ushtobe,45.2514,77.9838,32.61,99,100,5.14,KZ,1675621147
453,ayagoz,47.9714,80.4392,26.96,97,100,9.75,KZ,1675621147
454,bairiki,1.3292,172.9752,80.6,83,40,11.5,KI,1675621148
455,marawi,7.9986,124.2928,67.05,92,97,1.99,PH,1675621148
456,xining,36.6167,101.7667,24.6,53,5,2.75,CN,1675621149
457,arica,-18.475,-70.3042,85.55,61,75,9.22,CL,1675621115
458,whitehorse,60.7161,-135.0538,1.81,76,75,5.01,CA,1675621150
459,mastic beach,40.7668,-72.8521,43.57,67,0,9.22,US,1675621150
460,mosquera,4.7059,-74.2302,68.09,45,75,12.66,CO,1675621151
461,golyshmanovo,56.3979,68.3728,-0.42,100,100,3.87,RU,1675621151
462,tual,-5.6667,132.75,79.63,84,100,19.39,ID,1675621152
463,rio bonito,-22.7086,-42.6097,84.81,74,49,6.93,BR,1675621152
464,grajau,-5.8194,-46.1386,87.42,62,64,1.63,BR,1675620872
465,belyy yar,53.6039,91.3903,-10.14,76,20,2.24,RU,1675620908
466,san patricio,28.017,-97.5169,76.87,64,0,5.59,US,1675621153
467,uporovo,56.3109,66.2693,0.01,99,100,3.49,RU,1675621153
468,mahibadhoo,3.7833,72.9667,81.21,74,99,6.69,MV,1675621154
469,acapulco,16.8634,-99.8901,85.82,58,0,5.75,MX,1675621058
470,ambatofinandrahana,-20.55,46.8,60.53,92,100,4.76,MG,1675621154
471,mrakovo,52.7161,56.6244,-1.28,99,95,2.15,RU,1675621155
472,junnar,19.2,73.8833,69.21,37,10,4.61,IN,1675621156
473,concepcion del uruguay,-32.4825,-58.2372,89.26,37,0,8.01,AR,1675621072
474,oloron-sainte-marie,43.1944,-0.6107,46.74,76,94,5.01,FR,1675621157
475,agadez,19.75,10.25,71.37,15,35,11.83,NE,1675621157
476,choya,52.0108,86.5467,15.66,98,99,3.56,RU,1675621158
477,guarapuava,-25.3953,-51.4581,77.41,40,62,5.86,BR,1675620886
478,rawson,-43.3002,-65.1023,85.14,31,45,12.55,AR,1675621158
479,cimislia,46.52,28.7842,30.34,71,76,14.58,MD,1675621159
480,udayagiri,20.1333,84.3833,60.48,28,0,2.95,IN,1675621159
481,long beach,33.767,-118.1892,62.1,81,75,12.66,US,1675620497
482,smirice,50.2998,15.8651,26.82,74,100,4.52,CZ,1675621160
483,korla,41.7597,86.1469,28.94,70,95,3.78,CN,1675621160
484,dolinsk,47.35,142.8,-1.8,97,76,4.59,RU,1675621161
485,morehead,37.2711,-87.1764,54.79,55,100,9.22,US,1675621162
486,kutum,14.2,24.6667,72.05,11,57,4.72,SD,1675621162
487,rafaela,-31.2503,-61.4867,91.98,18,0,6.44,AR,1675621162
488,aden,12.7794,45.0367,75.49,71,38,8.3,YE,1675621163
489,misratah,32.3754,15.0925,58.17,59,40,20.69,LY,1675621163
490,freeport,40.6576,-73.5832,45.37,56,0,11.5,US,1675621164
491,yar-sale,66.8333,70.8333,-6.68,99,97,5.82,RU,1675621164
492,nushki,29.5542,66.0215,56.88,47,47,4.45,PK,1675621165
493,khandyga,62.6667,135.6,-34.2,100,98,0.22,RU,1675621165
494,gat,31.61,34.7642,56.39,100,39,11.21,IL,1675620989
495,puerto del rosario,28.5004,-13.8627,64.15,59,20,10.36,ES,1675621166
496,puerto cabezas,14.0351,-83.3888,84.16,79,40,9.22,NI,1675621166
497,turbat,26.0023,63.044,70.39,50,0,5.73,PK,1675621167
498,sao felix do xingu,-6.6447,-51.995,89.64,51,96,2.21,BR,1675621167
499,chifeng,42.2683,118.9636,18.07,51,42,0.6,CN,1675621119
500,portree,57.4129,-6.1942,43.52,92,100,18.86,GB,1675621168
501,mandalgovi,45.7625,106.2708,13.03,51,31,2.28,MN,1675621168
502,barstow,34.8986,-117.0228,56.39,59,27,20.92,US,1675621169
503,bad reichenhall,47.7333,12.8833,34.23,69,40,3.44,DE,1675621169
504,kaeo,-35.1,173.7833,66.33,94,99,5.39,NZ,1675621170
505,paita,-5.0892,-81.1144,81.36,62,73,12.41,PE,1675621171
506,tyukalinsk,55.8732,72.1967,-0.45,98,100,3.74,RU,1675621171
507,magadan,59.5667,150.8,-11.56,78,82,7.16,RU,1675620949
508,emerald,-23.5333,148.1667,76.33,91,100,12.19,AU,1675621172
509,santa rosa,14.3122,121.1114,80.58,83,80,7.78,PH,1675621172
510,luebo,-5.35,21.4167,76.17,73,49,4.07,CD,1675621173
511,hasaki,35.7333,140.8333,34.2,79,90,9.69,JP,1675621173
512,okhotsk,59.3833,143.3,-15.59,81,77,10.76,RU,1675621174
513,quang ngai,15.1167,108.8,69.3,93,53,3.87,VN,1675621174
514,san carlos de bariloche,-41.1456,-71.3082,80.35,19,0,25.32,AR,1675621175
515,kuala terengganu,5.3302,103.1408,80.55,83,40,9.22,MY,1675621175
516,tazovskiy,67.4667,78.7,-9.6,100,56,8.46,RU,1675621007
517,hazorasp,41.3194,61.0742,31.84,49,100,9.06,UZ,1675621176
518,khanpur,28.6453,70.6567,68.02,29,0,0.87,PK,1675621176
519,quatre cocos,-20.2078,57.7625,80.1,82,73,11.41,MU,1675620894
520,belaya gora,68.5333,146.4167,-36.33,100,100,0.78,RU,1675621177
521,zilair,52.2332,57.4392,-2.25,100,80,1.97,RU,1675621153
522,shingu,33.7333,135.9833,38.7,54,16,5.48,JP,1675621177
523,iconha,-20.7931,-40.8111,87.08,69,8,5.82,BR,1675621178
524,nouadhibou,20.931,-17.0347,71.58,33,100,16.11,MR,1675620935
525,mogadishu,2.0371,45.3438,77.27,81,58,20.11,SO,1675621178
526,den helder,52.9599,4.7593,42.98,83,100,9.22,NL,1675621129
527,ndago,-4.6,34.35,64.51,77,44,3.38,TZ,1675621179
528,trebinje,42.7119,18.3442,32.34,34,0,11.5,BA,1675621179
529,zhezkazgan,47.8043,67.7144,27.34,96,100,5.68,KZ,1675621180
530,trincomalee,8.5711,81.2335,78.51,77,100,13.53,LK,1675621180
531,bhunya,-26.55,31.0167,63.5,96,0,1.21,SZ,1675621181
532,savasleyka,55.4606,42.3207,21.22,96,100,3.91,RU,1675621181
533,kupang,-10.1667,123.5833,76.75,87,95,8.77,ID,1675621182
534,tomatlan,19.9333,-105.25,89.13,29,13,6.64,MX,1675621182
535,shitanjing,39.2342,106.3439,25.77,32,100,3.62,CN,1675621182
536,eyl,7.9803,49.8164,75.47,74,42,16.71,SO,1675621183
537,faro,37.0194,-7.9322,58.96,63,0,4.61,PT,1675620935
538,omboue,-1.5746,9.2618,79.03,83,97,5.93,GA,1675621183
539,turukhansk,65.8167,87.9833,2.84,98,98,2.17,RU,1675621184
540,pacific grove,36.6177,-121.9166,56.1,87,75,13.8,US,1675621184
541,millinocket,45.6573,-68.7098,14.11,57,100,0.0,US,1675621057
542,el estor,15.5333,-89.35,80.96,56,41,3.02,GT,1675621185
543,lorengau,-2.0226,147.2712,80.89,79,100,3.58,PG,1675620649
544,high level,58.5169,-117.136,6.91,92,100,5.75,CA,1675620936
545,walvis bay,-22.9575,14.5053,66.09,80,99,7.54,NA,1675621186
546,amarante do maranhao,-5.5667,-46.7422,87.64,56,61,6.29,BR,1675621186
547,ryotsu,38.0833,138.4333,40.19,77,34,11.7,JP,1675621187
548,moron,-34.6534,-58.6198,87.94,41,0,4.27,AR,1675621187
549,paceco,37.9787,12.5566,45.99,76,40,8.05,IT,1675621187
550,shizunai,42.3339,142.3669,32.5,81,100,10.02,JP,1675621188
551,blythe,33.6103,-114.5964,65.03,31,0,0.0,US,1675621188
552,vanimo,-2.6741,141.3028,78.15,87,100,3.74,PG,1675621189
553,sao pedro do piaui,-5.9294,-42.7186,92.53,36,33,4.97,BR,1675621189
554,nishihara,26.1842,127.7558,67.28,88,75,5.75,JP,1675621020
555,nikolayevsk-na-amure,53.1406,140.73,-10.43,99,99,3.06,RU,1675621190
556,armacao de pera,37.1026,-8.357,59.09,63,6,7.9,PT,1675621033
557,pacocha,-17.5833,-71.3333,78.37,72,89,8.41,PE,1675621190
558,jumla,29.2747,82.1838,38.37,59,0,4.03,NP,1675621191
559,solano,38.2333,-121.9511,56.52,77,40,8.05,US,1675621191
560,zhanakorgan,43.9098,67.2495,32.61,77,34,5.61,KZ,1675621192
561,makokou,0.5738,12.8642,76.87,68,70,3.58,GA,1675621192
